# Time (s),Altitude (m),Vertical velocity (m/s),Vertical acceleration (G),Total velocity (m/s),Total acceleration (G),Position East of launch (m),Position North of launch (m),Lateral distance (m),Lateral direction (°),Lateral velocity (m/s),Lateral acceleration (G),Latitude (°),Longitude (°),Gravitational acceleration (G),Angle of attack (°),Roll rate (°/s),Pitch rate (°/s),Yaw rate (°/s),Mass (g),Propellant mass (g),Longitudinal moment of inertia (kg·m²),Rotational moment of inertia (kg·m²),CP location (mm),CG location (mm),Stability margin calibers (​),Mach number (​),Reynolds number (​),Thrust (N),Drag force (N),Drag coefficient (​),Axial drag coefficient (​),Friction drag coefficient (​),Pressure drag coefficient (​),Base drag coefficient (​),Normal force coefficient (​),Pitch moment coefficient (​),Yaw moment coefficient (​),Side force coefficient (​),Roll moment coefficient (​),Roll forcing coefficient (​),Roll damping coefficient (​),Pitch damping coefficient (​),Coriolis acceleration (G),Reference length (mm),Reference area (m²),Vertical orientation (zenith) (°),Lateral orientation (azimuth) (°),Wind velocity (m/s),Air temperature (°C),Air pressure (mbar),Speed of sound (m/s),Simulation time step (s),Computation time (s)
# Event LAUNCH occurred at t=0 seconds
# Event IGNITION occurred at t=0 seconds
0,0,0,3.9418,0,3.942,0,0,0,0,0,0.0344,40,-100,0.99902,89.5,0,0,0,298.41,31.912,0.0078331,3.6449e-5,NaN,292.08,NaN,0.014698,147496,14.459,7.5029e-9,0.61652,1.0248e-6,0.49559,8.9879e-4,0.12003,NaN,NaN,NaN,NaN,NaN,NaN,NaN,NaN,0,27,5.7256e-4,89.5,0,NaN,5.25,845.56,334.48,0.01,0.0015711
0.01,0.0019328,0.38656,13.362,0.38658,13.363,1.6867e-5,0,1.6867e-5,0,0.0033735,0.11661,40,-100,0.99902,84.888,0,0,0,298.41,31.912,0.0078331,3.6449e-5,NaN,292.08,NaN,0.014372,144226,42.028,7.3349e-6,0.61925,0.0010478,0.49832,8.9852e-4,0.12003,NaN,NaN,NaN,NaN,NaN,NaN,NaN,NaN,4.4042e-6,27,5.7256e-4,89.5,0,NaN,5.25,845.56,334.48,0.01,0.001907
0.02,0.012353,1.6976,19.463,1.6977,19.464,1.078e-4,0,1.078e-4,0,0.014815,0.16985,40,-100,0.99902,69.543,0,0,0,298.23,31.727,0.0078279,3.6436e-5,NaN,291.97,NaN,0.014871,149225,59.846,4.1661e-4,0.61511,0.055594,0.49418,8.9893e-4,0.12003,NaN,NaN,NaN,NaN,NaN,NaN,NaN,NaN,1.9342e-5,27,5.7256e-4,89.5,0,NaN,5.2499,845.56,334.48,0.01,0.0021689
# Event LIFTOFF occurred at t=0.03 seconds
0.03,0.038878,3.6076,15.943,3.6077,15.944,3.3928e-4,0,3.3928e-4,0,0.031483,0.13914,40,-100,0.99902,51.176,0,0,0,298,31.504,0.0078216,3.642e-5,NaN,291.85,NaN,0.017393,174536,49.517,0.0028765,0.59672,0.28059,0.47578,9.012e-4,0.12004,NaN,NaN,NaN,NaN,NaN,NaN,NaN,NaN,4.1102e-5,27,5.7256e-4,89.5,0,NaN,5.2497,845.56,334.48,0.01,0.0023778
0.04,0.082776,5.1722,11.809,5.1724,11.809,7.2237e-4,0,7.2237e-4,0,0.045137,0.10305,40,-100,0.99902,40.206,0,0,0,297.74,31.242,0.0078142,3.6401e-5,NaN,291.71,NaN,0.020398,204696,37.404,0.0065813,0.57905,0.46674,0.45809,9.0436e-4,0.12005,NaN,NaN,NaN,NaN,NaN,NaN,NaN,NaN,5.8928e-5,27,5.7256e-4,89.5,0,NaN,5.2495,845.55,334.48,0.01,0.0025743
0.05,0.14029,6.3312,9.2002,6.3314,9.2005,0.0012243,0,0.0012243,0,0.055251,0.080289,40,-100,0.99902,33.881,0,0,0,297.47,30.967,0.0078064,3.6381e-5,NaN,291.55,NaN,0.022935,230148,29.764,0.010105,0.56668,0.56688,0.4457,9.0743e-4,0.12007,NaN,NaN,NaN,NaN,NaN,NaN,NaN,NaN,7.2132e-5,27,5.7256e-4,89.5,0,NaN,5.2491,845.55,334.48,0.01,0.0028461
0.06,0.20812,7.234,8.9633,7.2342,8.9636,0.0018162,0,0.0018162,0,0.06313,0.078221,40,-100,0.99902,30.65,0,0,0,297.24,30.744,0.0078001,3.6365e-5,NaN,291.43,NaN,0.025271,253590,29.054,0.013141,0.55682,0.60722,0.43582,9.1057e-4,0.12008,NaN,NaN,NaN,NaN,NaN,NaN,NaN,NaN,8.2418e-5,27,5.7256e-4,89.5,0,NaN,5.2486,845.54,334.48,0.01,0.0030616
0.07,0.28485,8.1134,9.3082,8.1137,9.3085,0.0024859,0,0.0024859,0,0.070804,0.081231,40,-100,0.99902,28.04,0,0,0,297.07,30.571,0.0077952,3.6352e-5,NaN,291.33,NaN,0.027612,277080,30.045,0.016363,0.5481,0.63334,0.42709,9.1402e-4,0.1201,NaN,NaN,NaN,NaN,NaN,NaN,NaN,NaN,9.2437e-5,27,5.7256e-4,89.5,0,NaN,5.2481,845.53,334.48,0.01,0.0032497
0.08,0.37055,9.0266,9.6534,9.027,9.6538,0.0032338,0,0.0032338,0,0.078774,0.084244,40,-100,0.99902,25.759,0,0,0,296.89,30.397,0.0077902,3.634e-5,NaN,291.23,NaN,0.030093,301968,31.036,0.019961,0.53989,0.65049,0.41885,9.1801e-4,0.12012,NaN,NaN,NaN,NaN,NaN,NaN,NaN,NaN,1.0284e-4,27,5.7256e-4,89.5,0,NaN,5.2476,845.52,334.48,0.01,0.003491
0.09,0.46555,9.9738,9.9716,9.9741,9.972,0.0040628,0,0.0040628,0,0.08704,0.087021,40,-100,0.99902,23.756,0,0,0,296.72,30.222,0.0077853,3.6327e-5,NaN,291.14,NaN,0.032706,328190,31.948,0.023941,0.53216,0.6605,0.4111,9.2259e-4,0.12014,NaN,NaN,NaN,NaN,NaN,NaN,NaN,NaN,1.1363e-4,27,5.7256e-4,89.5,0,NaN,5.247,845.51,334.48,0.01,0.0037882
0.1,0.57018,10.952,10.126,10.953,10.127,0.0049759,0,0.0049759,0,0.095578,0.088371,40,-100,0.99902,21.994,0,0,0,296.54,30.043,0.0077801,3.6314e-5,NaN,291.04,NaN,0.03544,355622,32.383,0.0283,0.52492,0.66494,0.40383,9.2779e-4,0.12016,NaN,NaN,NaN,NaN,NaN,NaN,NaN,NaN,1.2478e-4,27,5.7256e-4,89.5,0,NaN,5.2463,845.5,334.48,0.01,0.0040593
0.11,0.68467,11.946,10.254,11.946,10.255,0.005975,0,0.005975,0,0.10425,0.089488,40,-100,0.99902,20.237,0,0,0,296.35,29.852,0.0077747,3.6301e-5,NaN,290.93,NaN,0.038188,383196,32.738,0.03293,0.51836,0.66638,0.39724,9.3344e-4,0.12019,NaN,NaN,NaN,NaN,NaN,NaN,NaN,NaN,1.361e-4,27,5.7256e-4,89.5,0,NaN,5.2455,845.49,334.48,0.01,0.0042918
0.12,0.80916,12.952,10.383,12.952,10.383,0.0070614,0,0.0070614,0,0.11303,0.090607,40,-100,0.99902,18.701,0,0,0,296.15,29.656,0.0077691,3.6286e-5,NaN,290.82,NaN,0.041003,411438,33.094,0.037819,0.51227,0.66385,0.39111,9.3966e-4,0.12022,NaN,NaN,NaN,NaN,NaN,NaN,NaN,NaN,1.4756e-4,27,5.7256e-4,89.5,0,NaN,5.2447,845.48,334.48,0.01,0.0045647
0.13,0.94377,13.971,10.511,13.971,10.511,0.0082362,0,0.0082362,0,0.12192,0.091727,40,-100,0.99902,17.348,0,0,0,295.96,29.459,0.0077635,3.6272e-5,NaN,290.71,NaN,0.04388,440296,33.45,0.042961,0.50659,0.65848,0.3854,9.4648e-4,0.12025,NaN,NaN,NaN,NaN,NaN,NaN,NaN,NaN,1.5917e-4,27,5.7256e-4,89.5,0,NaN,5.2439,845.46,334.48,0.01,0.0048666
0.14,1.0886,15.002,10.639,15.002,10.64,0.0095003,0,0.0095003,0,0.13092,0.092848,40,-100,0.99902,16.149,0,0,0,295.76,29.263,0.0077579,3.6258e-5,NaN,290.6,NaN,0.046814,469732,33.806,0.048311,0.5013,0.65059,0.38006,9.5392e-4,0.12028,NaN,NaN,NaN,NaN,NaN,NaN,NaN,NaN,1.7092e-4,27,5.7256e-4,89.5,0,NaN,5.2429,845.45,334.48,0.01,0.0051837
0.15,1.2439,16.046,10.768,16.046,10.768,0.010855,0,0.010855,0,0.14003,0.09397,40,-100,0.99902,15.081,0,0,0,295.56,29.067,0.0077522,3.6244e-5,NaN,290.49,NaN,0.049803,499713,34.161,0.053783,0.49634,0.63997,0.37505,9.6199e-4,0.12032,NaN,NaN,NaN,NaN,NaN,NaN,NaN,NaN,1.8281e-4,27,5.7256e-4,89.5,0,NaN,5.2419,845.43,334.48,0.01,0.0055254
0.16,1.4096,17.102,10.897,17.103,10.897,0.012301,0,0.012301,0,0.14925,0.095093,40,-100,0.99902,14.072,0,0,0,295.37,28.87,0.0077466,3.623e-5,NaN,290.38,NaN,0.052831,530090,34.517,0.059351,0.4917,0.6276,0.37037,9.7068e-4,0.12036,NaN,NaN,NaN,NaN,NaN,NaN,NaN,NaN,1.9485e-4,27,5.7256e-4,89.5,0,NaN,5.2408,845.42,334.47,0.01,0.0058405
0.17,1.586,18.171,11.025,18.172,11.026,0.013841,0,0.013841,0,0.15858,0.096218,40,-100,0.99902,13.164,0,0,0,295.17,28.674,0.007741,3.6216e-5,NaN,290.26,NaN,0.055911,560981,34.873,0.065092,0.48734,0.61458,0.36596,9.8005e-4,0.12041,NaN,NaN,NaN,NaN,NaN,NaN,NaN,NaN,2.0703e-4,27,5.7256e-4,89.5,0,NaN,5.2397,845.4,334.47,0.01,0.0061503
0.18,1.7731,19.253,11.154,19.254,11.155,0.015474,0,0.015474,0,0.16802,0.097343,40,-100,0.99902,12.344,0,0,0,294.98,28.478,0.0077353,3.6202e-5,NaN,290.15,NaN,0.05904,592367,35.229,0.071039,0.48323,0.60153,0.36179,9.9011e-4,0.12045,NaN,NaN,NaN,NaN,NaN,NaN,NaN,NaN,2.1935e-4,27,5.7256e-4,89.5,0,NaN,5.2385,845.38,334.47,0.01,0.0064713
0.19,1.9711,20.348,11.283,20.348,11.284,0.017202,0,0.017202,0,0.17757,0.098468,40,-100,0.99902,11.599,0,0,0,294.78,28.281,0.0077296,3.6188e-5,NaN,290.04,NaN,0.062217,624233,35.584,0.077222,0.47934,0.58883,0.35784,0.0010009,0.1205,NaN,NaN,NaN,NaN,NaN,NaN,NaN,NaN,2.3182e-4,27,5.7256e-4,89.5,0,NaN,5.2372,845.36,334.47,0.01,0.0068075
0.2,2.1801,21.455,11.412,21.455,11.413,0.019026,0,0.019026,0,0.18723,0.099595,40,-100,0.99902,10.92,0,0,0,294.58,28.085,0.007724,3.6173e-5,NaN,289.93,NaN,0.065441,656564,35.94,0.083665,0.47566,0.57666,0.35409,0.0010124,0.12056,NaN,NaN,NaN,NaN,NaN,NaN,NaN,NaN,2.4444e-4,27,5.7256e-4,89.5,0,NaN,5.2358,845.34,334.47,0.01,0.0071022
0.21,2.4003,22.574,11.513,22.575,11.514,0.020947,0,0.020947,0,0.197,0.10048,40,-100,0.99902,10.571,0,0,0,294.39,27.889,0.0077183,3.6159e-5,NaN,289.82,NaN,0.068773,689981,36.215,0.091058,0.47211,0.56829,0.35047,0.001025,0.12061,NaN,NaN,NaN,NaN,NaN,NaN,NaN,NaN,2.5719e-4,27,5.7256e-4,89.5,0,NaN,5.2344,845.32,334.47,0.01,0.0074081
# Event LAUNCHROD occurred at t=0.22 seconds
0.22,2.6316,23.704,11.558,23.705,11.558,0.022966,0,0.022966,0,0.20686,0.0080721,40,-100,0.99902,10.249,0,0,0,294.18,27.686,0.0077125,3.6145e-5,296.34,289.7,0.24596,0.072136,723713,36.349,0.098799,0.46875,0.56046,0.34703,0.0010383,0.12068,1.6567,0.4078,2.5122e-4,0,0,0,0,0,2.7006e-4,27,5.7256e-4,89.5,0,NaN,5.2329,845.29,334.47,0.015,0.0078374
0.235,3,25.406,11.627,25.407,11.627,0.026075,0,0.026075,4.888e-6,0.20754,0.001682,40,-100,0.99902,9.7839,0,0.23605,6.7366e-5,293.92,27.422,0.0077048,3.6126e-5,296.79,289.55,0.2679,0.077201,774499,36.542,0.11091,0.46407,0.54933,0.34223,0.0010595,0.12077,1.5503,0.41552,-8.6736e-5,0,0,0,0,2.6036e-6,2.8946e-4,27,5.7256e-4,89.498,-1.1649e-5,NaN,5.2305,845.26,334.47,0.0225,0.0081563
0.2575,3.6005,27.977,11.732,27.978,11.732,0.030741,1.3189e-8,0.030741,2.4582e-5,0.20704,0.0027338,40,-100,0.99902,8.9736,0,0.66247,4.5007e-5,293.52,27.024,0.0076933,3.6097e-5,297.61,289.33,0.30668,0.084806,850744,36.832,0.12964,0.45777,0.53217,0.33574,0.0010942,0.12093,1.3719,0.42046,-6.2628e-7,0,0,0,0,1.6993e-5,3.1874e-4,27,5.7256e-4,89.488,-1.7829e-4,NaN,5.2266,845.2,334.47,0.03375,0.0084609
0.29125,4.6104,31.871,11.889,31.872,11.889,0.037727,4.3947e-8,0.037727,6.6741e-5,0.20741,0.0072065,40,-100,0.99902,7.4366,0,1.4557,-6.6762e-5,292.93,26.427,0.0076759,3.6054e-5,299.36,288.98,0.38425,0.096222,965187,37.263,0.1582,0.44965,0.50451,0.32729,0.0011524,0.1212,1.0576,0.40662,4.4674e-4,0,0,0,0,6.3736e-5,3.631e-4,27,5.7256e-4,89.453,-4.2663e-4,NaN,5.22,845.09,334.46,0.05,0.0087475
0.34125,6.3502,37.724,11.967,37.725,11.967,0.048228,1.3849e-7,0.048228,1.6453e-4,0.2136,0.019006,40,-100,0.99902,6.2931,0,2.9715,-0.0011307,292.04,25.539,0.0076499,3.599e-5,300.87,288.47,0.45933,0.11363,1139596,37.34,0.21002,0.43955,0.48038,0.31662,0.0012558,0.12168,0.84483,0.38805,-4.5182e-4,0,0,0,0,1.9046e-4,4.2978e-4,27,5.7256e-4,89.344,0.0026033,NaN,5.2087,844.92,334.46,0.05,0.0089994
0.39125,8.3834,43.605,11.826,43.605,11.826,0.05923,4.2784e-7,0.05923,4.1387e-4,0.22884,0.044741,40,-100,0.99902,5.5284,-4.2464e-7,4.9573,-5.913e-4,291.04,24.546,0.0076206,3.5919e-5,302.01,287.89,0.52278,0.13119,1315501,36.876,0.27374,0.43722,0.46982,0.31361,0.0013782,0.12224,0.71262,0.37213,-4.953e-4,0,0,0,0,3.9769e-4,4.9677e-4,27,5.7256e-4,89.148,0.0045215,NaN,5.1955,844.71,334.45,0.05,0.0092646
0.44125,10.709,49.414,11.677,49.414,11.678,0.071412,1.1842e-6,0.071412,9.5015e-4,0.26296,0.096357,40,-100,0.99902,4.8876,2.8816e-7,7.4337,-7.7816e-4,290.12,23.625,0.0075933,3.5852e-5,303.05,287.36,0.58126,0.14858,1489542,36.411,0.34679,0.43784,0.46417,0.31345,0.0015175,0.12287,0.60808,0.35226,4.9814e-4,0,0,0,0,6.9723e-4,5.6296e-4,27,5.7256e-4,88.84,0.0035983,NaN,5.1804,844.48,334.44,0.05,0.0095106
0.49125,13.323,55.149,11.525,55.15,11.527,0.086127,2.4808e-6,0.086127,0.0016504,0.33455,0.20013,40,-100,0.99902,3.8876,0,10.279,-6.056e-4,289.21,22.708,0.007566,3.5786e-5,304.83,286.82,0.66717,0.16567,1660458,35.946,0.42344,0.43853,0.45602,0.31329,0.0016725,0.12357,0.45633,0.30332,-1.4974e-4,0,0,0,0,0.0010723,6.283e-4,27,5.7256e-4,88.398,0.0042717,NaN,5.1634,844.21,334.43,0.05,0.0097851
0.54125,16.222,60.809,11.367,60.81,11.373,0.10588,4.5434e-6,0.10588,0.0024585,0.46792,0.34375,40,-100,0.99902,2.9069,-1.2223e-6,13.175,-0.0010375,288.29,21.791,0.0075385,3.572e-5,306.81,286.28,0.76068,0.18256,1829278,35.48,0.50669,0.43928,0.44952,0.3131,0.0018437,0.12433,0.32112,0.24287,8.4776e-5,0,0,0,0,0.0014509,6.9279e-4,27,5.7256e-4,87.812,0.0038471,NaN,5.1446,843.92,334.42,0.05,0.0099824
0.59125,19.402,66.389,11.203,66.393,11.215,0.13425,7.6984e-6,0.13425,0.0032854,0.68293,0.53137,40,-100,0.99902,1.8179,-1.6189e-6,15.767,-0.0048963,287.37,20.874,0.0075108,3.5654e-5,309.34,285.73,0.87449,0.19921,1995575,35.015,0.59611,0.44009,0.4443,0.3129,0.0020304,0.12516,0.18683,0.16157,-4.1326e-5,0,0,0,0,0.0017452,7.564e-4,27,5.7256e-4,87.086,0.0051542,NaN,5.1239,843.6,334.4,0.05,0.01017
0.64125,22.859,71.887,11.03,71.894,11.054,0.17576,1.2657e-5,0.17576,0.0041258,0.99434,0.72871,40,-100,0.99902,1.09,-2.1249e-6,17.718,-0.00638,286.46,19.957,0.0074829,3.5588e-5,311.28,285.18,0.96661,0.21575,2160606,34.549,0.69615,0.44097,0.44253,0.31269,0.002234,0.12605,0.10641,0.10096,-2.2078e-4,0,0,0,0,0.0018789,8.1911e-4,27,5.7256e-4,86.246,0.0061674,NaN,5.1014,843.25,334.39,0.05,0.010458
0.69125,26.588,77.298,10.847,77.311,10.89,0.23541,2.0286e-5,0.23541,0.0049374,1.412,0.96532,40,-100,0.99902,0.024388,-2.3123e-6,18.647,-0.19975,285.54,19.04,0.0074549,3.5522e-5,314.5,284.63,1.1066,0.23195,2322048,34.084,0.8031,0.4419,0.4419,0.31246,0.0024513,0.12699,0.002197,5.5414e-4,-4.2671e-4,0,0,0,0,0.0018008,8.8086e-4,27,5.7256e-4,85.33,0.0048544,NaN,5.0772,842.87,334.38,0.05,0.010767
0.74125,30.586,82.617,10.654,82.64,10.721,0.31888,3.0613e-5,0.31888,0.0055004,1.947,1.1969,40,-100,0.99901,0.80902,-1.7596e-6,-17.746,-0.0073379,284.62,18.123,0.0074267,3.5456e-5,312.17,284.07,1.0408,0.24795,2481344,33.619,0.92116,0.44289,0.44377,0.31222,0.002684,0.12799,0.077423,0.082239,-7.5997e-5,0,0,0,0,-0.0014273,9.4165e-4,27,5.7256e-4,84.413,0.0028559,NaN,5.0512,842.46,334.36,0.05,0.010966
0.79125,34.848,87.839,10.453,87.877,10.549,0.43193,4.3011e-5,0.43193,0.0057055,2.5945,1.4205,40,-100,0.99901,1.5672,1.7897e-6,-14.922,-0.0042078,283.7,17.206,0.0073983,3.539e-5,310.18,283.51,0.9876,0.26366,2637562,33.153,1.0489,0.44393,0.44712,0.31196,0.0029305,0.12904,0.15848,0.15747,-4.5466e-4,0,0,0,0,-8.9262e-4,0.0010014,27,5.7256e-4,83.588,7.412e-4,NaN,5.0235,842.03,334.34,0.05,0.011157
0.84125,39.368,92.961,10.249,93.021,10.374,0.58,5.655e-5,0.58,0.0055863,3.3449,1.607,40,-100,0.99901,2.1728,-5.3272e-6,-9.9143,-0.0012488,282.79,16.289,0.0073697,3.5324e-5,308.75,282.95,0.9555,0.27906,2790478,32.766,1.1846,0.44502,0.451,0.3117,0.00319,0.13012,0.22914,0.21901,-9.6009e-5,0,0,0,0,-3.5179e-4,0.0010602,27,5.7256e-4,82.958,-4.4805e-4,NaN,4.9941,841.58,334.33,0.033126,0.011345
0.87438,42.503,96.299,10.152,96.377,10.29,0.69965,6.5334e-5,0.69965,0.0053504,3.8839,1.6825,40,-100,0.99901,2.3307,-7.5469e-6,-5.502,-4.7784e-4,282.03,15.527,0.0073458,3.5269e-5,308.42,282.48,0.96076,0.28914,2890389,32.481,1.2757,0.44576,0.45261,0.31152,0.0033696,0.13087,0.24847,0.23895,4.6202e-4,0,0,0,0,-1.0094e-4,0.0010986,27,5.7256e-4,82.701,-6.1852e-4,NaN,4.9737,841.26,334.31,0.028202,0.011534
0.90258,45.258,99.109,10.056,99.205,10.199,0.81581,7.2702e-5,0.81581,0.005106,4.355,1.7021,40,-100,0.99901,2.3091,-6.0634e-6,-1.3252,0.0015214,281.46,14.965,0.0073281,3.5229e-5,308.5,282.13,0.97679,0.29764,2974633,32.227,1.353,0.44641,0.45315,0.31136,0.0035275,0.13152,0.24585,0.24018,3.5245e-4,0,0,0,0,-5.526e-6,0.0011309,27,5.7256e-4,82.604,-7.7319e-4,NaN,4.9558,840.98,334.3,0.026423,0.011759
0.929,47.911,101.72,9.9671,101.83,10.106,0.9367,7.9587e-5,0.9367,0.0048682,4.7946,1.6714,40,-100,0.99901,2.09,-5.5033e-6,2.652,-0.0017228,280.96,14.464,0.0073123,3.5193e-5,309.05,281.81,1.0086,0.30558,3053231,31.977,1.424,0.44703,0.45262,0.31121,0.0036802,0.13214,0.21932,0.22089,-4.4441e-4,0,0,0,0,2.0998e-5,0.001161,27,5.7256e-4,82.622,-7.4135e-4,NaN,4.9386,840.71,334.29,0.027206,0.011958
0.95621,50.715,104.38,9.8749,104.51,10.004,1.0732,8.6686e-5,1.0732,0.0046282,5.2341,1.6038,40,-100,0.99901,1.7719,-5.639e-6,6.5215,-3.5157e-4,280.47,13.972,0.0072967,3.5157e-5,309.86,281.51,1.0501,0.31368,3133397,31.712,1.4972,0.44769,0.45176,0.31106,0.0038415,0.13279,0.18197,0.19134,-1.0768e-4,0,0,0,0,1.2051e-4,0.0011917,27,5.7256e-4,82.747,-7.8825e-4,NaN,4.9204,840.43,334.28,0.029754,0.012157
0.98596,53.863,107.26,9.7747,107.41,9.8879,1.2357,9.4466e-5,1.2357,0.0043801,5.6886,1.492,40,-100,0.99901,1.328,-4.782e-6,10.177,0.0012143,279.95,13.45,0.0072801,3.512e-5,311.04,281.18,1.1061,0.32246,3220204,31.402,1.578,0.44842,0.45076,0.31088,0.0040225,0.13352,0.13223,0.14587,4.0073e-4,0,0,0,0,2.7774e-4,0.0012249,27,5.7256e-4,82.997,-5.1681e-4,NaN,4.8999,840.11,334.27,0.03686,0.012417
1.0228,57.882,110.79,9.6431,110.97,9.7338,1.455,1.0431e-4,1.455,0.0041074,6.2009,1.3262,40,-100,0.99901,0.78512,-7.7682e-6,13.46,9.9676e-4,279.34,12.839,0.0072606,3.5076e-5,312.6,280.79,1.1781,0.33316,3325834,30.998,1.6815,0.44934,0.45018,0.31066,0.004252,0.13443,0.075174,0.088146,-8.7442e-5,0,0,0,0,4.5516e-4,0.0012656,27,5.7256e-4,83.437,3.7589e-4,NaN,4.8738,839.7,334.25,0.05,0.012646
1.0728,63.54,115.52,9.4535,115.72,9.5148,1.7804,1.1883e-4,1.7804,0.0038241,6.7949,1.078,40,-100,0.999,0.092784,-9.2178e-6,15.46,0.017838,278.54,12.043,0.007235,3.5018e-5,314.79,280.29,1.2779,0.34736,3465864,30.532,1.8286,0.45062,0.45063,0.31036,0.0045727,0.13569,0.0084311,0.0099972,-1.0422e-4,0,0,0,0,5.524e-4,0.0013199,27,5.7256e-4,84.173,0.0021232,NaN,4.837,839.13,334.23,0.05,0.012853
1.1228,69.432,120.16,9.2831,120.38,9.3193,2.1324,1.3617e-4,2.1324,0.0036588,7.2664,0.82067,40,-100,0.999,0.5918,-1.0176e-5,-14.166,0.0022178,277.62,11.126,0.0072054,3.4952e-5,313.32,279.7,1.2449,0.3613,3602992,30.067,1.9846,0.45192,0.4524,0.31005,0.0049054,0.13697,0.055903,0.070106,-1.2025e-4,0,0,0,0,-4.2878e-4,0.0013732,27,5.7256e-4,84.929,0.0096839,NaN,4.7987,838.53,334.21,0.05,0.013043
1.1728,75.554,124.72,9.102,124.95,9.1215,2.5048,1.6105e-4,2.5048,0.0036839,7.6136,0.59567,40,-100,0.999,1.132,-9.4187e-6,-8.9071,-0.0039344,276.71,10.209,0.0071756,3.4886e-5,311.84,279.11,1.212,0.37499,3737451,29.699,2.1485,0.45326,0.45499,0.30973,0.0052507,0.13828,0.11133,0.13547,2.9415e-5,0,0,0,0,-1.5739e-4,0.0014253,27,5.7256e-4,85.52,0.018369,NaN,4.7589,837.91,334.18,0.029005,0.01324
1.2018,79.209,127.31,9.0346,127.55,9.0495,2.728,1.8113e-4,2.728,0.0038042,7.7727,0.51994,40,-100,0.999,1.2715,-1.3364e-5,-4.4809,-0.00554,275.98,9.4844,0.0071519,3.4834e-5,311.5,278.65,1.2168,0.38279,3813885,29.45,2.2438,0.45405,0.45622,0.30954,0.0054557,0.13905,0.12634,0.15336,-3.152e-4,0,0,0,0,-3.8229e-5,0.001455,27,5.7256e-4,85.716,0.023556,NaN,4.7351,837.54,334.17,0.024517,0.013428
1.2263,82.357,129.49,8.9479,129.73,8.9611,2.9201,2.0222e-4,2.9201,0.0039678,7.8939,0.48708,40,-100,0.999,1.3093,-1.5279e-5,-0.2716,-0.0092167,275.49,8.9936,0.0071358,3.4799e-5,311.43,278.33,1.2261,0.38932,3877906,29.231,2.3243,0.45472,0.45703,0.30939,0.0056324,0.1397,0.13048,0.16037,-6.7588e-5,0,0,0,0,-1.3578e-7,0.0014798,27,5.7256e-4,85.775,0.026861,NaN,4.7147,837.22,334.16,0.022622,0.013616
1.249,85.308,131.47,8.8612,131.72,8.8748,3.0999,2.2543e-4,3.0999,0.0041667,8.0025,0.4919,40,-100,0.999,1.2506,-1.5751e-5,3.7488,-0.0098433,275.06,8.5614,0.0071216,3.4768e-5,311.63,278.05,1.2437,0.39529,3936321,29.019,2.3976,0.45535,0.45746,0.30924,0.0057978,0.14031,0.12413,0.15444,-4.7523e-4,0,0,0,0,2.5094e-5,0.0015025,27,5.7256e-4,85.736,0.028553,NaN,4.6955,836.93,334.14,0.022749,0.013803
1.2717,88.322,133.45,8.7672,133.7,8.7839,3.2832,2.526e-4,3.2832,0.0044081,8.118,0.54225,40,-100,0.999,1.0507,-1.7514e-5,7.5402,-0.0064201,274.64,8.1454,0.0071078,3.4738e-5,312.21,277.78,1.2754,0.4012,3994066,28.793,2.469,0.45598,0.45748,0.30909,0.0059653,0.14093,0.10282,0.13137,-2.8541e-4,0,0,0,0,9.8561e-5,0.0015251,27,5.7256e-4,85.606,0.027207,NaN,4.6759,836.62,334.13,0.025921,0.013993
1.2976,91.81,135.68,8.6507,135.93,8.674,3.4955,2.8809e-4,3.4955,0.0047221,8.2679,0.63486,40,-100,0.999,0.73526,-1.5622e-5,11.049,-0.0069779,274.2,7.6991,0.0070931,3.4706e-5,313.16,277.48,1.3212,0.40786,4059088,28.506,2.5504,0.45671,0.45745,0.30892,0.0061587,0.14163,0.070322,0.092249,-1.8005e-4,0,0,0,0,2.0481e-4,0.0015506,27,5.7256e-4,85.363,0.023186,NaN,4.6532,836.27,334.12,0.03566,0.01418
1.3333,96.702,138.69,8.4742,138.95,8.5108,3.7946,3.4354e-4,3.7946,0.0051871,8.5179,0.78889,40,-100,0.99899,0.2642,-1.2981e-5,13.88,-0.011914,273.63,7.1344,0.0070743,3.4665e-5,314.65,277.11,1.3903,0.41694,4147592,28.108,2.6658,0.45772,0.45781,0.30869,0.0064303,0.1426,0.024393,0.033223,-4.1308e-4,0,0,0,0,3.0929e-4,0.0015851,27,5.7256e-4,84.911,0.014198,NaN,4.6214,835.77,334.1,0.05,0.014368
1.3833,103.74,142.83,8.2159,143.11,8.2792,4.2312,4.2845e-4,4.2312,0.0058016,8.9664,1.022,40,-100,0.99899,0.41412,-1.5666e-5,-13.122,-1.4693e-4,272.85,6.349,0.007048,3.4608e-5,314.26,276.59,1.3951,0.42942,4269005,27.642,2.835,0.45915,0.45939,0.30835,0.0068196,0.14397,0.038696,0.053818,-3.34e-4,0,0,0,0,-2.6063e-4,0.0016326,27,5.7256e-4,84.213,8.1914e-4,NaN,4.5757,835.06,334.07,0.05,0.014574
1.4333,110.98,146.85,7.9853,147.16,8.0754,4.6931,5.1239e-4,4.6931,0.0062556,9.5213,1.2028,40,-100,0.99899,0.88922,-1.9205e-5,-6.8247,-0.011506,271.93,5.4321,0.0070172,3.4542e-5,312.92,275.98,1.3681,0.44158,4386924,27.3,3.0101,0.46059,0.46168,0.30802,0.0072169,0.14535,0.086137,0.11785,-2.3121e-4,0,0,0,0,-6.669e-5,0.0016789,27,5.7256e-4,83.695,-0.0092874,NaN,4.5286,834.33,334.04,0.023615,0.0148
1.4569,114.47,148.71,7.9355,149.03,8.0321,4.9212,5.4889e-4,4.9212,0.0063905,9.807,1.2419,40,-100,0.99899,0.96955,-2.1946e-5,-2.4854,-0.0092971,271.26,4.7571,0.0069944,3.4494e-5,312.73,275.53,1.3776,0.44721,4441428,27.093,3.0919,0.46127,0.46257,0.30786,0.0074072,0.146,0.094495,0.13039,3.213e-4,0,0,0,0,-8.6242e-6,0.0017004,27,5.7256e-4,83.584,-0.012804,NaN,4.5059,833.97,334.03,0.02075,0.015001
1.4777,117.57,150.32,7.8554,150.66,7.9514,5.1274,5.7813e-4,5.1274,0.0064604,10.06,1.2319,40,-100,0.99899,0.93959,-2.4286e-5,1.554,-0.01304,270.85,4.3503,0.0069806,3.4465e-5,312.85,275.26,1.3921,0.45211,4488857,26.9,3.1625,0.46188,0.4631,0.30773,0.0075764,0.14657,0.091394,0.1268,-3.1963e-4,0,0,0,0,3.2992e-6,0.001719,27,5.7256e-4,83.575,-0.014926,NaN,4.4858,833.66,334.02,0.020844,0.015189
1.4985,120.72,151.93,7.7732,152.28,7.8632,5.3397,6.045e-4,5.3397,0.0064864,10.309,1.1865,40,-100,0.99899,0.82892,-2.2678e-5,5.4202,-0.014946,270.47,3.9689,0.0069676,3.4437e-5,313.2,275,1.4147,0.45698,4535948,26.696,3.2323,0.46248,0.46344,0.30759,0.0077478,0.14715,0.079993,0.11294,2.2944e-4,0,0,0,0,3.9285e-5,0.0017376,27,5.7256e-4,83.648,-0.015771,NaN,4.4653,833.34,334,0.022871,0.01538
1.5214,124.22,153.67,7.6845,154.03,7.7612,5.5784,6.2988e-4,5.5784,0.0064695,10.566,1.0888,40,-100,0.99899,0.58148,-2.4703e-5,8.9216,-0.019592,270.07,3.5681,0.0069539,3.4408e-5,313.97,274.73,1.4533,0.46231,4587348,26.443,3.308,0.46316,0.46363,0.30743,0.0079387,0.14778,0.055105,0.080034,-7.9734e-5,0,0,0,0,1.0401e-4,0.0017577,27,5.7256e-4,83.814,-0.01539,NaN,4.4426,832.99,333.99,0.031487,0.015575
1.5529,129.09,156.04,7.5908,156.42,7.6462,5.9161,6.5942e-4,5.9161,0.0063862,10.878,0.91843,40,-100,0.99898,0.1524,-2.2899e-5,11.531,-0.087467,269.57,3.0697,0.0069368,3.4372e-5,315.37,274.39,1.5175,0.46955,4657078,26.323,3.4139,0.46409,0.46412,0.30722,0.0082045,0.14866,0.013982,0.020711,7.6878e-5,0,0,0,0,1.6844e-4,0.001785,27,5.7256e-4,84.143,-0.010973,NaN,4.4109,832.49,333.97,0.047231,0.015788
1.6001,136.55,159.56,7.7296,159.96,7.7595,6.439,6.9695e-4,6.439,0.0062016,11.245,0.67986,40,-100,0.99898,0.48333,-1.6091e-5,-9.4628,-0.025563,268.9,2.3985,0.0069138,3.4324e-5,314.4,273.94,1.4986,0.48029,4760428,26.755,3.582,0.4655,0.46583,0.3069,0.008613,0.14999,0.045504,0.068007,-4.7183e-4,0,0,0,0,-1.0844e-4,0.0018255,27,5.7256e-4,84.666,-0.0030083,NaN,4.3624,831.74,333.94,0.034186,0.015981
1.6343,142.05,162.17,7.4027,162.57,7.4204,6.827,7.2204e-4,6.827,0.0060597,11.448,0.51237,40,-100,0.99898,0.80546,-1.2813e-5,-3.7931,-0.0034868,268.25,1.7552,0.0068915,3.4278e-5,313.49,273.5,1.4812,0.48823,4836642,26.271,3.7119,0.46657,0.46749,0.30666,0.0089257,0.15099,0.077705,0.11467,3.8569e-4,0,0,0,0,-1.6864e-5,0.0018553,27,5.7256e-4,84.901,-3.1203e-4,NaN,4.3267,831.18,333.92,0.019571,0.016179
1.6538,145.23,163.61,7.0434,164.02,7.0578,7.052,7.3643e-4,7.052,0.0059833,11.545,0.45067,40,-100,0.99898,0.8698,-1.6147e-5,0.51013,-0.0077126,267.85,1.3472,0.0068774,3.4248e-5,313.33,273.22,1.4858,0.49263,4878812,25.074,3.7838,0.46718,0.46824,0.30652,0.0091033,0.15155,0.084328,0.12489,3.2775e-5,0,0,0,0,2.9962e-7,0.0018718,27,5.7256e-4,84.934,7.6393e-4,NaN,4.306,830.86,333.91,0.017621,0.016373
1.6715,148.13,164.84,6.0085,165.24,6.0204,7.2561,7.4964e-4,7.2561,0.0059193,11.625,0.37943,40,-100,0.99898,0.81014,-1.6678e-5,4.4602,-0.0067765,267.59,1.0959,0.0068686,3.423e-5,313.54,273.04,1.4997,0.49632,4914034,22.175,3.8423,0.46769,0.46861,0.30641,0.0092545,0.15202,0.078214,0.11747,1.4164e-4,0,0,0,0,2.2566e-5,0.0018858,27,5.7256e-4,84.89,0.0020157,NaN,4.2872,830.57,333.9,0.018439,0.016563
1.6899,151.18,165.92,4.7187,166.33,4.7291,7.4711,7.6383e-4,7.4711,0.0058578,11.697,0.31454,40,-100,0.99898,0.67976,-1.7654e-5,8.1955,-0.012208,267.41,0.91495,0.0068623,3.4217e-5,313.95,272.92,1.5195,0.49958,4944939,18.622,3.8931,0.46814,0.4688,0.30631,0.00939,0.15245,0.065006,0.09904,-2.1518e-4,0,0,0,0,7.5206e-5,0.0018982,27,5.7256e-4,84.772,0.0037272,NaN,4.2673,830.26,333.88,0.021574,0.016764
1.7115,154.77,166.89,3.1362,167.31,3.147,7.7242,7.8118e-4,7.7242,0.0057945,11.771,0.25993,40,-100,0.99898,0.43732,-1.8185e-5,11.56,-0.0035373,267.25,0.74813,0.0068565,3.4205e-5,314.71,272.81,1.5521,0.50252,4972408,13.834,3.9376,0.46856,0.46883,0.30621,0.0095136,0.15283,0.041073,0.063182,-4.2809e-5,0,0,0,0,1.479e-4,0.0019094,27,5.7256e-4,84.557,0.0047505,NaN,4.244,829.9,333.87,0.032361,0.016972
1.7438,160.18,167.79,0.036616,168.21,0.11788,8.1067,8.0886e-4,8.1067,0.0057168,11.87,0.11204,40,-100,0.99897,0.025896,-1.7537e-5,-13.425,-0.153,266.71,0.21291,0.0068378,3.4167e-5,316.06,272.43,1.6156,0.5052,4996476,6.7033,3.9781,0.46894,0.46894,0.30613,0.0096277,0.15318,0.0023567,0.0035282,-2.3393e-4,0,0,0,0,-1.9738e-4,0.0019197,27,5.7256e-4,84.142,0.0060032,NaN,4.2088,829.35,333.85,0.048541,0.017202
1.7924,168.33,167.8,-1.9179,168.23,1.9181,8.6848,8.5534e-4,8.6848,0.0056429,11.959,0.024095,40,-100,0.99897,0.42353,-2.7583e-5,-9.9487,-0.017279,266.52,0.019827,0.006831,3.4153e-5,314.78,272.3,1.5732,0.50547,4995333,1.602,3.9807,0.46897,0.46923,0.30612,0.009639,0.15321,0.039743,0.06232,2.7335e-4,0,0,0,0,-1.083e-4,0.0019199,27,5.7256e-4,83.554,0.0069294,NaN,4.1559,828.52,333.82,0.033514,0.01743
1.8259,173.94,167.17,-2.5192,167.6,2.5192,9.0858,8.901e-4,9.0858,0.005613,11.976,0.010644,40,-100,0.99897,0.61908,-3.8017e-5,-4.9979,-0.001955,266.5,0.0011043,0.0068304,3.4151e-5,314.16,272.29,1.5509,0.50366,4974897,0.008156,3.9499,0.46872,0.46926,0.30618,0.0095619,0.15298,0.058948,0.091675,4.739e-4,0,0,0,0,-2.7533e-5,0.0019128,27,5.7256e-4,83.298,0.0042549,NaN,4.1194,827.95,333.8,0.02298,0.017654
# Event BURNOUT occurred at t=1.8489 seconds
1.8489,177.78,166.61,-2.5127,167.04,2.5128,9.3611,9.148e-4,9.3611,0.0055992,11.981,0.022697,40,-100,0.99897,0.66392,-3.5998e-5,-0.82178,-0.011805,266.5,0.0011043,0.0068304,3.4151e-5,314.01,272.29,1.5454,0.502,4956712,0,3.9207,0.46848,0.46911,0.30623,0.0094915,0.15276,0.063425,0.098459,1.9442e-5,0,0,0,0,-7.4937e-7,0.0019064,27,5.7256e-4,83.231,0.0026124,NaN,4.0944,827.57,333.78,0.021462,0.017863
1.8703,181.35,166.08,-2.5001,166.51,2.5001,9.6182,9.3831e-4,9.6182,0.0055895,11.984,0.0089653,40,-100,0.99897,0.61851,-3.7199e-5,3.0527,-0.019261,266.5,0,0.0068303,3.4151e-5,314.14,272.29,1.5501,0.50045,4939790,0,3.8923,0.46826,0.46881,0.30628,0.0094263,0.15256,0.058882,0.091457,-1.7425e-4,0,0,0,0,1.0406e-5,0.0019004,27,5.7256e-4,83.256,-2.0139e-5,NaN,4.0712,827.2,333.77,0.023259,0.018058
1.8936,185.2,165.51,-2.4831,165.94,2.4833,9.897,9.6377e-4,9.897,0.0055795,11.982,0.029671,40,-100,0.99897,0.48362,-3.5924e-5,6.6231,-0.017946,266.5,0,0.0068303,3.4151e-5,314.54,272.29,1.5649,0.49878,4921548,0,3.8609,0.46803,0.46836,0.30633,0.0093564,0.15234,0.045573,0.071723,1.0384e-4,0,0,0,0,4.9314e-5,0.001894,27,5.7256e-4,83.37,-0.0024326,NaN,4.0462,826.81,333.75,0.029871,0.018261
1.9235,190.14,164.79,-2.4598,165.22,2.4616,10.255,9.9589e-4,10.255,0.0055643,11.964,0.094625,40,-100,0.99896,0.24282,-3.5921e-5,9.636,-0.020882,266.5,0,0.0068303,3.4151e-5,315.28,272.29,1.5923,0.49662,4898009,0,3.8207,0.46773,0.46781,0.3064,0.0092668,0.15206,0.022464,0.035355,-3.6078e-4,0,0,0,0,1.0531e-4,0.0018857,27,5.7256e-4,83.618,-0.0028954,NaN,4.0141,826.32,333.73,0.044807,0.018486
1.9683,197.5,163.71,-2.4265,164.14,2.4347,10.789,0.0010434,10.789,0.0055408,11.899,0.19893,40,-100,0.99896,0.1718,-3.452e-5,-10.042,-0.022171,266.5,0,0.0068303,3.4151e-5,315.48,272.29,1.5999,0.49338,4862818,0,3.7638,0.46728,0.46732,0.3065,0.009134,0.15165,0.015804,0.025725,-4.3754e-4,0,0,0,0,-1.1589e-4,0.0018735,27,5.7256e-4,84.076,0.0032266,NaN,3.9663,825.57,333.7,0.05,0.018678
2.0183,205.65,162.53,-2.3959,162.96,2.4126,11.382,0.0010982,11.382,0.0055285,11.779,0.28344,40,-100,0.99896,0.50929,-3.8009e-5,-5.3016,0.0035175,266.5,0,0.0068303,3.4151e-5,314.39,272.29,1.5594,0.48981,4823968,0,3.7045,0.46679,0.46716,0.30661,0.0089892,0.15119,0.048064,0.074807,2.7967e-4,0,0,0,0,-3.2781e-5,0.0018599,27,5.7256e-4,84.477,0.0077497,NaN,3.9133,824.74,333.67,0.029773,0.018949
2.0481,210.48,161.83,-2.3812,162.26,2.3999,11.731,0.0011331,11.731,0.0055344,11.693,0.29897,40,-100,0.99896,0.57869,-3.8262e-5,-0.95051,-8.9764e-4,266.5,0,0.0068303,3.4151e-5,314.16,272.29,1.551,0.48772,4801178,0,3.6692,0.4665,0.46698,0.30668,0.0089052,0.15092,0.054893,0.085352,-4.3346e-4,0,0,0,0,-1.0629e-6,0.0018519,27,5.7256e-4,84.571,0.0092461,NaN,3.8819,824.26,333.65,0.026334,0.019254
2.0744,214.73,161.22,-2.369,161.64,2.3884,12.038,0.0011655,12.038,0.0055473,11.615,0.30334,40,-100,0.99896,0.59936,-3.868e-5,3.1341,-0.0098182,266.5,0,0.0068303,3.4151e-5,314.09,272.29,1.5482,0.48594,4781770,0,3.639,0.46626,0.46677,0.30673,0.0088344,0.1507,0.056938,0.088339,7.988e-5,0,0,0,0,1.1642e-5,0.0018448,27,5.7256e-4,84.542,0.0098082,NaN,3.8542,823.83,333.63,0.025644,0.019463
2.1,218.86,160.63,-2.3591,161.04,2.3759,12.335,0.0011985,12.335,0.0055673,11.541,0.28203,40,-100,0.99896,0.52374,-3.972e-5,6.9192,-3.5669e-4,266.5,0,0.0068303,3.4151e-5,314.31,272.29,1.5562,0.48422,4763029,0,3.6087,0.46603,0.46642,0.30678,0.0087664,0.15048,0.049468,0.077086,-2.0933e-4,0,0,0,0,5.7153e-5,0.0018379,27,5.7256e-4,84.412,0.0097681,NaN,3.8274,823.41,333.62,0.029612,0.019676
2.1296,223.61,159.94,-2.353,160.35,2.3608,12.676,0.0012384,12.676,0.0055978,11.472,0.19172,40,-100,0.99895,0.18949,-3.9948e-5,9.6569,-0.018363,266.5,0,0.0068303,3.4151e-5,315.34,272.29,1.5946,0.48211,4740194,0,3.5705,0.46575,0.4658,0.30685,0.0086836,0.15022,0.017446,0.027349,9.247e-5,0,0,0,0,1.1232e-4,0.0018301,27,5.7256e-4,84.161,0.0082655,NaN,3.7966,822.93,333.6,0.044418,0.019876
2.1741,230.69,158.92,-2.3459,159.33,2.3471,13.184,0.0013013,13.184,0.0056553,11.417,0.073523,40,-100,0.99895,0.28257,-4.2974e-5,-8.8813,-0.009451,266.5,0,0.0068303,3.4151e-5,315.02,272.29,1.5827,0.47903,4706795,0,3.5193,0.46533,0.46545,0.30694,0.0085639,0.14983,0.026198,0.041808,-4.1098e-4,0,0,0,0,-9.6241e-5,0.0018184,27,5.7256e-4,83.731,0.0066367,NaN,3.7505,822.21,333.57,0.05,0.020073
2.2241,238.61,157.77,-2.3357,158.18,2.3358,13.754,0.0013757,13.754,0.0057306,11.403,0.014328,40,-100,0.99895,0.62478,-3.8175e-5,-3.149,-0.017219,266.5,0,0.0068303,3.4151e-5,313.93,272.29,1.5425,0.47559,4669580,0,3.4654,0.46488,0.46543,0.30704,0.0084321,0.1494,0.059437,0.091619,-1.8492e-4,0,0,0,0,-1.2277e-5,0.0018054,27,5.7256e-4,83.414,0.0038723,NaN,3.6991,821.41,333.54,0.02589,0.020267
2.2499,242.68,157.18,-2.3269,157.59,2.3271,14.049,0.001415,14.049,0.0057708,11.409,0.03274,40,-100,0.99895,0.69295,-4.1908e-5,1.1046,-0.018962,266.5,0,0.0068303,3.4151e-5,313.72,272.29,1.5345,0.47379,4650172,0,3.4367,0.46464,0.46532,0.3071,0.0083638,0.14918,0.066252,0.10175,3.9432e-4,0,0,0,0,1.5222e-6,0.0017987,27,5.7256e-4,83.386,-3.1123e-4,NaN,3.6726,821,333.52,0.023501,0.020482
2.2734,246.37,156.64,-2.3136,157.06,2.3136,14.318,0.0014505,14.318,0.0058046,11.415,0.0098782,40,-100,0.99895,0.60546,-3.9621e-5,4.8735,-0.02878,266.5,0,0.0068303,3.4151e-5,313.97,272.29,1.5438,0.47221,4633096,0,3.4097,0.46444,0.46495,0.30714,0.0083043,0.14899,0.057506,0.088872,3.8814e-4,0,0,0,0,2.9833e-5,0.0017926,27,5.7256e-4,83.458,-0.0045116,NaN,3.6486,820.62,333.51,0.027099,0.020704
2.3005,250.61,156.03,-2.2955,156.45,2.2958,14.627,0.0014903,14.627,0.0058376,11.411,0.039138,40,-100,0.99895,0.40901,-3.8031e-5,8.2505,-0.047402,266.5,0,0.0068303,3.4151e-5,314.56,272.29,1.5656,0.4704,4613521,0,3.378,0.4642,0.46444,0.3072,0.0082365,0.14877,0.038273,0.059969,-1.6052e-4,0,0,0,0,8.6168e-5,0.0017856,27,5.7256e-4,83.638,-0.0090846,NaN,3.6211,820.19,333.49,0.04049,0.020901
2.341,256.91,155.13,-2.2671,155.54,2.2713,15.088,0.0015461,15.088,0.0058713,11.376,0.138,40,-100,0.99894,0.01419,-3.2018e-5,-10.114,-1.3469,266.5,0,0.0068303,3.4151e-5,315.81,272.29,1.6119,0.46774,4584686,0,3.3331,0.46385,0.46385,0.30727,0.0081374,0.14844,0.0012878,0.0022303,-2.3238e-4,0,0,0,0,-1.3099e-4,0.0017753,27,5.7256e-4,84.026,-0.013399,NaN,3.5801,819.56,333.47,0.05,0.021121
2.391,264.63,154.02,-2.2354,154.43,2.2528,15.655,0.0016081,15.655,0.0058856,11.273,0.27952,40,-100,0.99894,0.61105,-4.0214e-5,-6.3879,-0.037533,266.5,0,0.0068303,3.4151e-5,313.9,272.29,1.5411,0.46459,4550506,0,3.286,0.46345,0.46397,0.30737,0.0080216,0.14806,0.058041,0.089789,1.0186e-4,0,0,0,0,-5.2973e-5,0.0017627,27,5.7256e-4,84.468,-0.010262,NaN,3.5299,818.77,333.44,0.027772,0.021319
2.4188,268.9,153.41,-2.2225,153.82,2.244,15.967,0.0016399,15.967,0.0058847,11.191,0.31033,40,-100,0.99894,0.74372,-3.9317e-5,-1.84,-0.038262,266.5,0,0.0068303,3.4151e-5,313.49,272.29,1.526,0.46279,4531136,0,3.2591,0.46322,0.46399,0.30742,0.0079563,0.14784,0.071339,0.10893,3.5654e-4,0,0,0,0,-4.4296e-6,0.0017557,27,5.7256e-4,84.584,-0.0012699,NaN,3.5021,818.34,333.42,0.023082,0.021511
2.4419,272.44,152.91,-2.2138,153.32,2.2344,16.224,0.0016661,16.224,0.0058839,11.122,0.30256,40,-100,0.99894,0.72278,-4.023e-5,2.1302,-0.031015,266.5,0,0.0068303,3.4151e-5,313.54,272.29,1.5279,0.46128,4514855,0,3.2348,0.46303,0.46376,0.30746,0.0079017,0.14766,0.069218,0.10609,-2.9819e-5,0,0,0,0,5.9765e-6,0.0017499,27,5.7256e-4,84.58,0.0074718,NaN,3.4791,817.98,333.41,0.023865,0.021706
2.4658,276.08,152.4,-2.2063,152.8,2.2234,16.489,0.0016941,16.489,0.0058867,11.054,0.27535,40,-100,0.99894,0.62066,-3.9888e-5,5.8533,-0.027091,266.5,0,0.0068303,3.4151e-5,313.84,272.29,1.5388,0.45974,4498196,0,3.2091,0.46283,0.46337,0.30751,0.0078461,0.14748,0.058983,0.091104,-3.561e-4,0,0,0,0,4.5434e-5,0.0017439,27,5.7256e-4,84.484,0.013519,NaN,3.4555,817.62,333.39,0.027992,0.021902
2.4937,280.34,151.79,-2.1992,152.19,2.2105,16.797,0.001729,16.797,0.0058975,10.985,0.22359,40,-100,0.99894,0.41063,-4.1442e-5,9.1962,-0.043181,266.5,0,0.0068303,3.4151e-5,314.47,272.29,1.5622,0.45794,4478822,0,3.1787,0.4626,0.46284,0.30756,0.0077818,0.14726,0.038408,0.059627,1.3411e-4,0,0,0,0,1.1304e-4,0.001737,27,5.7256e-4,84.27,0.017764,NaN,3.4278,817.19,333.38,0.041987,0.022096
2.5357,286.69,150.89,-2.193,151.28,2.1961,17.257,0.0017869,17.257,0.0059329,10.914,0.11716,40,-100,0.99893,0.057175,-4.0787e-5,-10.92,-0.33203,266.5,0,0.0068303,3.4151e-5,315.58,272.29,1.6033,0.45522,4449576,0,3.1347,0.46226,0.46227,0.30764,0.0076855,0.14694,0.0052034,0.0089334,2.7007e-4,0,0,0,0,-1.6134e-4,0.0017266,27,5.7256e-4,83.833,0.021548,NaN,3.3865,816.54,333.35,0.05,0.022319
2.5857,294.21,149.81,-2.1857,150.21,2.1859,17.802,0.001866,17.802,0.006006,10.882,0.027189,40,-100,0.99893,0.46696,-5.296e-5,-7.6871,-0.034209,266.5,0,0.0068303,3.4151e-5,314.25,272.29,1.5542,0.45208,4415794,0,3.0882,0.46187,0.46218,0.30773,0.0075756,0.14657,0.043851,0.06838,1.9652e-4,0,0,0,0,-8.1072e-5,0.0017144,27,5.7256e-4,83.35,0.01694,NaN,3.3376,815.78,333.32,0.038654,0.02254
2.6244,299.99,148.99,-2.1779,149.38,2.178,18.222,0.0019331,18.222,0.0060783,10.88,0.018448,40,-100,0.99893,0.6675,-5.9604e-5,-2.8953,-0.032066,266.5,0,0.0068303,3.4151e-5,313.63,272.29,1.531,0.44963,4389410,0,3.0526,0.46157,0.46219,0.3078,0.0074904,0.14628,0.06363,0.09703,9.8704e-5,0,0,0,0,-1.1629e-5,0.001705,27,5.7256e-4,83.14,0.0084311,NaN,3.3001,815.2,333.3,0.027559,0.02276
2.652,304.08,148.4,-2.1691,148.8,2.1693,18.522,0.0019825,18.522,0.0061327,10.887,0.029226,40,-100,0.99893,0.71304,-5.7165e-5,1.2957,-0.02716,266.5,0,0.0068303,3.4151e-5,313.48,272.29,1.5256,0.44786,4370439,0,3.0262,0.46135,0.46206,0.30785,0.0074295,0.14607,0.068196,0.10435,-9.1666e-5,0,0,0,0,2.3476e-6,0.0016983,27,5.7256e-4,83.118,0.0015722,NaN,3.2735,814.78,333.28,0.025843,0.022972
2.6778,307.91,147.85,-2.1559,148.25,2.1559,18.804,0.0020288,18.804,0.006182,10.892,0.0035642,40,-100,0.99893,0.60273,-5.9367e-5,5.0046,-0.023421,266.5,0,0.0068303,3.4151e-5,313.8,272.29,1.5374,0.44625,4353153,0,3.0004,0.46115,0.46166,0.30789,0.0073745,0.14589,0.057169,0.088343,-2.5039e-4,0,0,0,0,3.5279e-5,0.0016921,27,5.7256e-4,83.201,-0.0027607,NaN,3.2486,814.39,333.27,0.03076,0.023171
2.7086,312.45,147.2,-2.1374,147.6,2.138,19.139,0.0020828,19.139,0.0062355,10.886,0.049435,40,-100,0.99893,0.36263,-5.9542e-5,8.2395,-0.034817,266.5,0,0.0068303,3.4151e-5,314.52,272.29,1.5642,0.44434,4332733,0,2.9696,0.46092,0.46111,0.30795,0.0073099,0.14567,0.033774,0.052531,1.2614e-4,0,0,0,0,9.6458e-5,0.0016848,27,5.7256e-4,83.409,-0.005334,NaN,3.2191,813.94,333.25,0.04614,0.030985
2.7547,319.22,146.24,-2.1097,146.64,2.1147,19.64,0.0021607,19.64,0.0063035,10.841,0.14586,40,-100,0.99892,0.10843,-6.1587e-5,-9.459,-0.11548,266.5,0,0.0068303,3.4151e-5,315.31,272.29,1.5935,0.44152,4302432,0,2.9263,0.46058,0.4606,0.30802,0.0072148,0.14534,0.0099013,0.016088,1.0367e-4,0,0,0,0,-1.2878e-4,0.0016738,27,5.7256e-4,83.834,-0.0051589,NaN,3.1751,813.25,333.22,0.05,0.03119
2.8047,326.51,145.21,-2.0849,145.61,2.0974,20.18,0.0022419,20.18,0.0063654,10.749,0.22866,40,-100,0.99892,0.5179,-5.5322e-5,-6.1019,-0.023025,266.5,0,0.0068303,3.4151e-5,314,272.29,1.545,0.43845,4269647,0,2.8831,0.46021,0.46059,0.30811,0.007113,0.14499,0.048794,0.075433,-7.6719e-6,0,0,0,0,-5.4349e-5,0.001662,27,5.7256e-4,84.24,0.0033387,NaN,3.1277,812.51,333.19,0.037403,0.031494
2.8421,331.92,144.45,-2.0681,144.84,2.0886,20.58,0.0023026,20.58,0.0064105,10.652,0.29167,40,-100,0.99892,0.80597,-4.8344e-5,-0.88905,-0.023342,266.5,0,0.0068303,3.4151e-5,313.13,272.29,1.5126,0.43631,4246601,0,2.8547,0.45996,0.46086,0.30817,0.0070424,0.14475,0.077579,0.11748,2.8254e-4,0,0,0,0,-1.1653e-6,0.0016533,27,5.7256e-4,84.377,0.012039,NaN,3.0925,811.96,333.17,0.02427,0.031819
2.8664,335.42,143.96,-2.0609,144.35,2.0792,20.838,0.0023432,20.838,0.0064428,10.583,0.27486,40,-100,0.99892,0.74239,-4.7887e-5,3.0806,-0.033209,266.5,0,0.0068303,3.4151e-5,313.3,272.29,1.5192,0.43481,4230634,0,2.832,0.45978,0.46055,0.30821,0.0069935,0.14458,0.071118,0.10797,-1.6198e-4,0,0,0,0,1.4089e-5,0.0016476,27,5.7256e-4,84.35,0.01892,NaN,3.0697,811.61,333.16,0.026602,0.032356
2.893,339.25,143.42,-2.0557,143.81,2.0675,21.118,0.0023899,21.118,0.0064839,10.518,0.22034,40,-100,0.99892,0.50623,-5.1249e-5,6.4708,-0.03753,266.5,0,0.0068303,3.4151e-5,314,272.29,1.545,0.43312,4212655,0,2.805,0.45958,0.45994,0.30825,0.0069385,0.14439,0.047642,0.073602,-3.9965e-4,0,0,0,0,6.2654e-5,0.0016414,27,5.7256e-4,84.22,0.024359,NaN,3.0449,811.22,333.14,0.039345,0.033184
2.9323,344.87,142.63,-2.0491,143.01,2.0542,21.531,0.0024645,21.531,0.0065582,10.448,0.14396,40,-100,0.99892,0.14242,-5.3153e-5,9.0021,-0.096915,266.5,0,0.0068303,3.4151e-5,315.13,272.29,1.5868,0.43072,4187044,0,2.7683,0.4593,0.45933,0.30832,0.006861,0.14412,0.013033,0.021041,3.0856e-4,0,0,0,0,1.2263e-4,0.0016323,27,5.7256e-4,83.906,0.023768,NaN,3.0083,810.65,333.12,0.05,0.033572
2.9823,351.98,141.63,-2.0418,142.01,2.0429,22.052,0.0025682,22.052,0.0066727,10.398,0.064525,40,-100,0.99891,0.26808,-5.439e-5,-8.2317,-0.050912,266.5,0,0.0068303,3.4151e-5,314.71,272.29,1.5711,0.42775,4155443,0,2.7263,0.45895,0.45905,0.3084,0.0067664,0.14379,0.02477,0.03951,-1.2106e-5,0,0,0,0,-1.0398e-4,0.0016209,27,5.7256e-4,83.459,0.012911,NaN,2.9621,809.93,333.09,0.05,0.033913
3.0323,359.04,140.63,-2.0304,141.01,2.0307,22.571,0.0026767,22.571,0.0067946,10.377,0.03559,40,-100,0.99891,0.42741,-4.3552e-5,-4.5312,-0.013029,266.5,0,0.0068303,3.4151e-5,314.19,272.29,1.552,0.42491,4125051,0,2.6868,0.45862,0.45888,0.30848,0.0066766,0.14347,0.039971,0.062325,2.1163e-4,0,0,0,0,-3.1937e-5,0.0016095,27,5.7256e-4,83.134,-3.2664e-4,NaN,2.9163,809.22,333.07,0.048397,0.034285
3.0807,365.82,139.67,-2.0158,140.05,2.0161,23.073,0.0027803,23.073,0.0069041,10.36,0.033558,40,-100,0.99891,0.44472,-3.3888e-5,-0.5516,-0.0067714,266.5,0,0.0068303,3.4151e-5,314.12,272.29,1.5494,0.42213,4095441,0,2.6478,0.4583,0.45858,0.30855,0.0065899,0.14317,0.041639,0.064803,3.8969e-4,0,0,0,0,-4.7959e-7,0.0015986,27,5.7256e-4,83.011,-0.0074043,NaN,2.8722,808.53,333.04,0.047202,0.034703
3.1279,372.39,138.74,-1.9966,139.13,1.9978,23.561,0.0028763,23.561,0.0069945,10.339,0.069111,40,-100,0.99891,0.26475,-2.8944e-5,2.8816,-0.024886,266.5,0,0.0068303,3.4151e-5,314.66,272.29,1.5695,0.41946,4066952,0,2.6094,0.458,0.4581,0.30862,0.0065072,0.14287,0.024448,0.038312,-4.118e-4,0,0,0,0,1.3258e-5,0.001588,27,5.7256e-4,83.073,-0.01102,NaN,2.8295,807.87,333.01,0.05,0.035126
3.1779,379.3,137.77,-1.976,138.15,1.9791,24.077,0.0029716,24.077,0.0070714,10.292,0.1116,40,-100,0.99891,0.028313,-2.7198e-5,3.9743,-0.17186,266.5,0,0.0068303,3.4151e-5,315.41,272.29,1.5971,0.41659,4036554,0,2.5694,0.45768,0.45768,0.3087,0.0064197,0.14256,0.0025665,0.0038732,-3.6627e-4,0,0,0,0,2.5572e-5,0.0015769,27,5.7256e-4,83.253,-0.0051437,NaN,2.7845,807.17,332.99,0.05,0.03558
3.2279,386.17,136.8,-1.9591,137.19,1.9629,24.59,0.0030635,24.59,0.007138,10.232,0.12282,40,-100,0.9989,0.056723,-2.6848e-5,-3.6545,-0.03711,266.5,0,0.0068303,3.4151e-5,315.3,272.29,1.5929,0.41362,4005112,0,2.5288,0.45734,0.45735,0.30877,0.0063298,0.14224,0.0051526,0.0086532,-4.9406e-4,0,0,0,0,-2.1938e-5,0.0015659,27,5.7256e-4,83.447,0.0039981,NaN,2.7399,806.47,332.96,0.05,0.03603
3.2779,392.98,135.85,-1.9409,136.23,1.947,25.101,0.0031558,25.101,0.0072036,10.169,0.15489,40,-100,0.9989,0.24775,-2.8089e-5,-2.7209,-0.0080853,266.5,0,0.0068303,3.4151e-5,314.66,272.29,1.5695,0.41078,3975046,0,2.4908,0.45703,0.45711,0.30885,0.0062449,0.14194,0.022839,0.035902,2.7347e-4,0,0,0,0,-1.2331e-5,0.001555,27,5.7256e-4,83.613,0.0083892,NaN,2.6956,805.78,332.93,0.05,0.039728
3.3279,399.75,134.9,-1.9249,135.28,1.9324,25.607,0.0032511,25.607,0.0072744,10.085,0.17011,40,-100,0.9989,0.34356,-3.1089e-5,0.3319,-0.014606,266.5,0,0.0068303,3.4151e-5,314.34,272.29,1.5577,0.40798,3945361,0,2.4536,0.45672,0.45688,0.30892,0.006162,0.14164,0.031902,0.049793,7.5345e-5,0,0,0,0,1.8604e-7,0.0015441,27,5.7256e-4,83.676,0.014811,NaN,2.6516,805.1,332.91,0.05,0.040096
3.3779,406.47,133.96,-1.9112,134.33,1.9183,26.109,0.0033519,26.109,0.0073557,10.005,0.1647,40,-100,0.9989,0.32137,-4.1024e-5,3.0136,-0.015243,266.5,0,0.0068303,3.4151e-5,314.4,272.29,1.5596,0.40522,3916147,0,2.4167,0.45642,0.45656,0.30899,0.0060812,0.14135,0.029787,0.046921,-9.6632e-5,0,0,0,0,1.555e-5,0.0015333,27,5.7256e-4,83.591,0.019553,NaN,2.6079,804.42,332.88,0.05,0.040437
3.4279,413.15,133.02,-1.9011,133.39,1.9052,26.607,0.0034602,26.607,0.0074512,9.9289,0.12613,40,-100,0.9989,0.10834,-3.5345e-5,5.3194,-0.05095,266.5,0,0.0068303,3.4151e-5,315.06,272.29,1.5841,0.40242,3886690,0,2.3793,0.45611,0.45613,0.30906,0.0060003,0.14105,0.0098767,0.015826,1.886e-4,0,0,0,0,4.9131e-5,0.0015226,27,5.7256e-4,83.375,0.017976,NaN,2.5645,803.74,332.85,0.05,0.041112
3.4779,419.78,132.09,-1.8938,132.46,1.895,27.103,0.0035747,27.103,0.0075571,9.8826,0.06834,40,-100,0.99889,0.22634,-3.4163e-5,-4.6929,-0.024088,266.5,0,0.0068303,3.4151e-5,314.66,272.29,1.5694,0.39958,3856782,0,2.3425,0.45581,0.45588,0.30913,0.0059189,0.14076,0.020822,0.032552,4.4596e-4,0,0,0,0,-3.8792e-5,0.001512,27,5.7256e-4,83.113,0.015327,NaN,2.5215,803.07,332.83,0.05,0.041762
3.5279,426.36,131.17,-1.8841,131.54,1.8845,27.596,0.0036945,27.596,0.0076706,9.8581,0.038016,40,-100,0.99889,0.40147,-3.3638e-5,-1.921,-0.019072,266.5,0,0.0068303,3.4151e-5,314.1,272.29,1.5485,0.39681,3827585,0,2.3075,0.45551,0.45574,0.3092,0.0058403,0.14047,0.037428,0.058386,4.8098e-4,0,0,0,0,-6.5925e-6,0.0015015,27,5.7256e-4,82.942,0.0083456,NaN,2.4787,802.41,332.8,0.05,0.042323
3.5779,432.89,130.25,-1.8708,130.62,1.8711,28.089,0.0038159,28.089,0.0077837,9.8407,0.036517,40,-100,0.99889,0.40724,-4.052e-5,1.4991,-0.023053,266.5,0,0.0068303,3.4151e-5,314.06,272.29,1.5472,0.39406,3798666,0,2.2723,0.45522,0.45545,0.30927,0.0057632,0.14019,0.03798,0.059255,-8.7552e-5,0,0,0,0,4.0714e-6,0.001491,27,5.7256e-4,82.932,-8.5341e-5,NaN,2.4362,801.74,332.78,0.05,0.042709
3.6279,439.38,129.33,-1.8539,129.71,1.8549,28.58,0.0039349,28.58,0.0078885,9.8178,0.061787,40,-100,0.99889,0.2487,-3.9036e-5,4.2792,-0.056685,266.5,0,0.0068303,3.4151e-5,314.54,272.29,1.565,0.39133,3.77e6,0,2.237,0.45493,0.45502,0.30934,0.0056875,0.13991,0.022911,0.035843,1.5014e-5,0,0,0,0,3.3645e-5,0.0014806,27,5.7256e-4,83.082,-0.009056,NaN,2.394,801.09,332.75,0.05,0.04314
3.6779,445.83,128.43,-1.8357,128.8,1.8386,29.07,0.0040479,29.07,0.0079783,9.7776,0.10384,40,-100,0.99888,0.026857,-4.0097e-5,-5.1853,-0.53746,266.5,0,0.0068303,3.4151e-5,315.24,272.29,1.5908,0.38864,3741858,0,2.2028,0.45465,0.45465,0.3094,0.0056138,0.13964,0.0024316,0.0039035,1.3607e-4,0,0,0,0,-5.0093e-5,0.0014703,27,5.7256e-4,83.328,-0.016083,NaN,2.3521,800.44,332.72,0.05,0.043397
3.7279,452.22,127.53,-1.8187,127.9,1.8243,29.557,0.0041523,29.557,0.0080491,9.7165,0.1432,40,-100,0.99888,0.29015,-3.9501e-5,-3.9117,-0.038356,266.5,0,0.0068303,3.4151e-5,314.38,272.29,1.5589,0.38598,3713960,0,2.1703,0.45438,0.45449,0.30947,0.0055416,0.13937,0.02681,0.041601,1.8718e-4,0,0,0,0,-2.8906e-5,0.0014601,27,5.7256e-4,83.565,-0.019859,NaN,2.3105,799.79,332.7,0.05,0.043638
3.7779,458.58,126.65,-1.8038,127.01,1.8117,30.041,0.0042473,30.041,0.0081005,9.6396,0.16932,40,-100,0.99888,0.46514,-4.5165e-5,-0.96372,-0.023124,266.5,0,0.0068303,3.4151e-5,313.82,272.29,1.5383,0.38336,3686485,0,2.1388,0.45411,0.45441,0.30953,0.0054711,0.13911,0.043553,0.06697,-2.4939e-5,0,0,0,0,-1.7789e-6,0.0014499,27,5.7256e-4,83.692,-0.015567,NaN,2.2692,799.14,332.67,0.05,0.043974
3.8279,464.89,125.76,-1.7909,126.13,1.7997,30.521,0.004335,30.521,0.0081378,9.5541,0.17732,40,-100,0.99888,0.52205,-3.6237e-5,2.8594,-0.033801,266.5,0,0.0068303,3.4151e-5,313.63,272.29,1.5313,0.38081,3659667,0,2.1078,0.45385,0.45422,0.30959,0.005403,0.13885,0.049088,0.075514,3.5742e-4,0,0,0,0,1.5874e-5,0.0014398,27,5.7256e-4,83.646,-0.0029356,NaN,2.2282,798.51,332.65,0.05,0.044223
3.8779,471.16,124.89,-1.7831,125.25,1.7878,30.997,0.0044207,30.997,0.0081713,9.4739,0.12974,40,-100,0.99888,0.23308,-4.2065e-5,6.1724,-0.084467,266.5,0,0.0068303,3.4151e-5,314.51,272.29,1.5639,0.37814,3631846,0,2.0741,0.45358,0.45365,0.30966,0.0053327,0.13859,0.021435,0.033818,4.9626e-4,0,0,0,0,7.5025e-5,0.0014297,27,5.7256e-4,83.411,0.018152,NaN,2.1875,797.87,332.62,0.05,0.044433
3.9279,477.38,124.02,-1.7761,124.37,1.7782,31.469,0.0045131,31.469,0.008217,9.4257,0.085432,40,-100,0.99887,0.064699,-4.2571e-5,-6.3633,-0.29302,266.5,0,0.0068303,3.4151e-5,315.04,272.29,1.5834,0.37554,3604745,0,2.0426,0.45332,0.45332,0.30972,0.005265,0.13833,0.0058721,0.0095379,-2.9867e-4,0,0,0,0,-8.0855e-5,0.0014198,27,5.7256e-4,83.088,0.034343,NaN,2.147,797.24,332.6,0.05,0.04462
3.9779,483.56,123.15,-1.7688,123.5,1.7696,31.94,0.0046183,31.94,0.0082847,9.3895,0.052637,40,-100,0.99887,0.29174,-4.0886e-5,-5.2932,-0.074473,266.5,0,0.0068303,3.4151e-5,314.3,272.29,1.556,0.373,3578151,0,2.0128,0.45306,0.45318,0.30978,0.0051992,0.13809,0.026947,0.042005,-3.794e-4,0,0,0,0,-5.6723e-5,0.0014098,27,5.7256e-4,82.79,0.037911,NaN,2.1069,796.62,332.58,0.05,0.044808
4.0279,489.69,122.28,-1.7631,122.64,1.7631,32.409,0.0047382,32.409,0.0083767,9.374,0.0090144,40,-100,0.99887,0.57567,-4.2498e-5,-2.2149,-0.04494,266.5,0,0.0068303,3.4151e-5,313.41,272.29,1.5232,0.37033,3550484,0,1.9829,0.4528,0.45326,0.30984,0.0051311,0.13783,0.05433,0.082697,-2.1594e-4,0,0,0,0,-1.0077e-5,0.0014,27,5.7256e-4,82.594,0.029001,NaN,2.067,796,332.55,0.048816,0.045021
4.0767,495.64,121.44,-1.7511,121.8,1.7511,32.866,0.0048655,32.866,0.008482,9.3732,0.014401,40,-100,0.99887,0.54119,-4.6649e-5,2.0658,-0.029107,266.5,0,0.0068303,3.4151e-5,313.5,272.29,1.5265,0.36784,3524529,0,1.9535,0.45255,0.45296,0.3099,0.005068,0.13759,0.050938,0.078132,-2.5054e-4,0,0,0,0,8.8858e-6,0.0013905,27,5.7256e-4,82.592,0.01568,NaN,2.0283,795.39,332.53,0.05,0.045209
4.1267,501.69,120.58,-1.7353,120.95,1.7358,33.334,0.0050003,33.334,0.0085946,9.3563,0.044063,40,-100,0.99887,0.3338,-5.663e-5,4.8888,-0.04038,266.5,0,0.0068303,3.4151e-5,314.12,272.29,1.5495,0.3653,3498168,0,1.9231,0.45231,0.45246,0.30996,0.0050043,0.13735,0.030923,0.047607,3.594e-4,0,0,0,0,5.0469e-5,0.0013808,27,5.7256e-4,82.772,0.0039684,NaN,1.989,794.79,332.5,0.05,0.045397
4.1767,507.7,119.74,-1.7193,120.1,1.7211,33.802,0.005134,33.802,0.0087024,9.3282,0.07828,40,-100,0.99887,0.073226,-5.4881e-5,6.4645,-0.23263,266.5,0,0.0068303,3.4151e-5,314.94,272.29,1.5797,0.36273,3471722,0,1.8931,0.45206,0.45207,0.31001,0.0049407,0.1371,0.0066473,0.010277,-1.3961e-4,0,0,0,0,8.9509e-5,0.0013711,27,5.7256e-4,83.063,-0.0089204,NaN,1.9499,794.21,332.48,0.05,0.045587
4.2267,513.67,118.9,-1.703,119.26,1.7077,34.267,0.0052623,34.267,0.0087988,9.2783,0.12735,40,-100,0.99886,0.30136,-5.4208e-5,-5.7322,-0.053542,266.5,0,0.0068303,3.4151e-5,314.2,272.29,1.5523,0.36026,3446201,0,1.8656,0.45182,0.45195,0.31007,0.00488,0.13687,0.027843,0.043015,-1.1183e-4,0,0,0,0,-7.1358e-5,0.0013615,27,5.7256e-4,83.379,-0.016314,NaN,1.9112,793.64,332.46,0.05,0.045775
4.2767,519.59,118.07,-1.6896,118.42,1.6967,34.729,0.0053825,34.729,0.0088801,9.2065,0.15468,40,-100,0.99886,0.51548,-5.6514e-5,-2.7761,-0.037591,266.5,0,0.0068303,3.4151e-5,313.53,272.29,1.5274,0.35776,3420468,0,1.8385,0.45159,0.45195,0.31013,0.0048193,0.13664,0.048407,0.074118,-4.2458e-4,0,0,0,0,-1.6974e-5,0.001352,27,5.7256e-4,83.597,-0.011707,NaN,1.8727,793.07,332.43,0.05,0.045964
4.3267,525.47,117.24,-1.6798,117.6,1.686,35.188,0.0054968,35.188,0.0089504,9.1318,0.1442,40,-100,0.99886,0.46495,-5.9101e-5,0.58381,-0.018948,266.5,0,0.0068303,3.4151e-5,313.67,272.29,1.5325,0.35521,3394219,0,1.8098,0.45134,0.45164,0.31018,0.0047577,0.1364,0.043491,0.066823,2.8173e-4,0,0,0,0,7.6162e-7,0.0013425,27,5.7256e-4,83.65,-0.0013293,NaN,1.8344,792.5,332.41,0.05,0.046152
4.3767,531.31,116.42,-1.6706,116.77,1.6757,35.642,0.005609,35.642,0.0090165,9.0664,0.13163,40,-100,0.99886,0.38504,-6.0818e-5,3.1302,-0.031328,266.5,0,0.0068303,3.4151e-5,313.9,272.29,1.5411,0.35275,3368981,0,1.7823,0.45111,0.45132,0.31024,0.0046992,0.13618,0.035795,0.055338,-2.9622e-4,0,0,0,0,2.2203e-5,0.0013331,27,5.7256e-4,83.555,0.011103,NaN,1.7965,791.94,332.39,0.05,0.046339
4.4267,537.11,115.6,-1.662,115.95,1.666,36.094,0.0057233,36.094,0.0090852,9.0044,0.11603,40,-100,0.99886,0.26984,-6.3774e-5,5.3432,-0.046742,266.5,0,0.0068303,3.4151e-5,314.24,272.29,1.5539,0.35038,3344505,0,1.7559,0.45089,0.45099,0.31029,0.0046431,0.13596,0.024862,0.038996,3.672e-4,0,0,0,0,6.5587e-5,0.0013238,27,5.7256e-4,83.339,0.020958,NaN,1.7588,791.38,332.36,0.05,0.046526
4.4767,542.87,114.79,-1.6557,115.14,1.6577,36.543,0.0058436,36.543,0.0091621,8.9549,0.081998,40,-100,0.99885,0.0045539,-6.6472e-5,5.5402,-2.9858,266.5,0,0.0068303,3.4151e-5,315.08,272.29,1.585,0.34796,3319684,0,1.7293,0.45067,0.45067,0.31034,0.0045865,0.13574,4.1096e-4,6.6741e-4,-2.2434e-4,0,0,0,0,7.1504e-5,0.0013145,27,5.7256e-4,83.042,0.027909,NaN,1.7213,790.83,332.34,0.05,0.046713
4.5267,548.59,113.98,-1.6507,114.33,1.6513,36.99,0.005972,36.99,0.0092504,8.9242,0.043398,40,-100,0.99885,0.30366,-6.7534e-5,-5.3651,-0.042504,266.5,0,0.0068303,3.4151e-5,314.11,272.29,1.5491,0.34552,3294682,0,1.7036,0.45045,0.45057,0.3104,0.00453,0.13552,0.028046,0.043617,-4.2454e-4,0,0,0,0,-6.8016e-5,0.0013052,27,5.7256e-4,82.743,0.030416,NaN,1.6841,790.27,332.32,0.05,0.046899
4.5767,554.27,113.17,-1.6453,113.52,1.6454,37.436,0.0061094,37.436,0.0093505,8.9108,0.011901,40,-100,0.99885,0.54789,-6.8067e-5,-2.7514,-0.018755,266.5,0,0.0068303,3.4151e-5,313.35,272.29,1.5209,0.34307,3269599,0,1.6785,0.45022,0.45064,0.31045,0.0044738,0.1353,0.051551,0.078169,-7.4164e-5,0,0,0,0,-1.8147e-5,0.0012961,27,5.7256e-4,82.534,0.029405,NaN,1.6472,789.73,332.3,0.05,0.047086
4.6267,559.91,112.37,-1.6342,112.72,1.6343,37.881,0.0062555,37.881,0.0094616,8.9066,0.023909,40,-100,0.99885,0.46178,-7.0316e-5,0.68492,-0.013695,266.5,0,0.0068303,3.4151e-5,313.6,272.29,1.5301,0.34075,3245833,0,1.6536,0.45002,0.45031,0.3105,0.0044211,0.13509,0.043164,0.066151,3.5184e-4,0,0,0,0,1.14e-6,0.0012869,27,5.7256e-4,82.485,0.024601,NaN,1.6106,789.19,332.27,0.05,0.047271
4.6767,565.51,111.57,-1.619,111.92,1.6204,38.326,0.0064081,38.326,0.0095798,8.8838,0.068151,40,-100,0.99885,0.10998,-6.7109e-5,2.3778,-0.014738,266.5,0,0.0068303,3.4151e-5,314.69,272.29,1.5705,0.33855,3223249,0,1.6295,0.44982,0.44984,0.31055,0.0043716,0.1349,0.010004,0.016172,6.0717e-5,0,0,0,0,1.3921e-5,0.0012779,27,5.7256e-4,82.57,0.016158,NaN,1.5742,788.65,332.25,0.05,0.047457
4.7267,571.07,110.78,-1.6058,111.13,1.609,38.769,0.0065639,38.769,0.0097006,8.8409,0.10062,40,-100,0.99885,0.17062,-6.6483e-5,-2.0726,0.018165,266.5,0,0.0068303,3.4151e-5,314.48,272.29,1.5629,0.3363,3200172,0,1.6062,0.44962,0.44966,0.31059,0.0043214,0.1347,0.015593,0.024373,-2.1055e-4,0,0,0,0,-1.0721e-5,0.0012688,27,5.7256e-4,82.688,0.0048723,NaN,1.5381,788.11,332.23,0.05,0.047659
4.7767,576.59,109.99,-1.5959,110.34,1.5993,39.21,0.0067186,39.21,0.0098176,8.7881,0.10556,40,-100,0.99884,0.22846,-6.4052e-5,-0.71687,0.015897,266.5,0,0.0068303,3.4151e-5,314.29,272.29,1.5556,0.33393,3176008,0,1.5819,0.44941,0.44948,0.31064,0.004269,0.1345,0.020971,0.032796,8.2824e-5,0,0,0,0,-1.3009e-6,0.0012599,27,5.7256e-4,82.759,-0.0061799,NaN,1.5022,787.58,332.21,0.05,0.047871
4.8267,582.07,109.21,-1.5866,109.56,1.5901,39.648,0.0068685,39.648,0.0099257,8.738,0.106,40,-100,0.99884,0.24528,-6.686e-5,0.46261,0.018786,266.5,0,0.0068303,3.4151e-5,314.22,272.29,1.5532,0.33159,3152166,0,1.5581,0.44921,0.44929,0.31069,0.0042177,0.13429,0.022543,0.035134,-1.4854e-5,0,0,0,0,5.495e-7,0.0012509,27,5.7256e-4,82.765,-0.012806,NaN,1.4666,787.05,332.19,0.05,0.048058
4.8767,587.51,108.44,-1.5789,108.78,1.5817,40.084,0.0070117,40.084,0.010023,8.6862,0.094096,40,-100,0.99884,0.15494,-6.9636e-5,1.8312,0.036407,266.5,0,0.0068303,3.4151e-5,314.5,272.29,1.5634,0.32923,3128192,0,1.5341,0.449,0.44903,0.31074,0.0041666,0.13409,0.014139,0.021681,3.9945e-4,0,0,0,0,8.7352e-6,0.0012421,27,5.7256e-4,82.706,-0.0142,NaN,1.4312,786.53,332.17,0.05,0.048275
4.9267,592.91,107.66,-1.5712,108.01,1.5734,40.517,0.0071483,40.517,0.010109,8.6454,0.08389,40,-100,0.99884,0.071169,-6.9753e-5,2.1905,0.047364,266.5,0,0.0068303,3.4151e-5,314.76,272.29,1.5729,0.32692,3104692,0,1.5109,0.4488,0.44881,0.31079,0.004117,0.13389,0.0064517,0.010274,-3.8179e-4,0,0,0,0,1.2678e-5,0.0012333,27,5.7256e-4,82.603,-0.0073929,NaN,1.3961,786.01,332.14,0.05,0.048475
4.9767,598.27,106.9,-1.5638,107.24,1.5655,40.948,0.0072804,40.948,0.010187,8.6045,0.073378,40,-100,0.99884,0.020587,-6.9336e-5,-2.5571,0.13399,266.5,0,0.0068303,3.4151e-5,314.91,272.29,1.5786,0.32463,3081416,0,1.4882,0.44861,0.44861,0.31084,0.0040682,0.1337,0.0018587,0.0030915,-2.2067e-4,0,0,0,0,-1.7524e-5,0.0012245,27,5.7256e-4,82.482,0.0048818,NaN,1.3612,785.49,332.12,0.05,0.048664
5.0267,603.6,106.13,-1.5562,106.48,1.5576,41.378,0.0074124,41.378,0.010264,8.5727,0.065932,40,-100,0.99884,0.087044,-6.9479e-5,-2.056,0.0092732,266.5,0,0.0068303,3.4151e-5,314.68,272.29,1.5702,0.32236,3058405,0,1.4659,0.44841,0.44842,0.31088,0.0040205,0.13351,0.0078995,0.012694,2.5164e-4,0,0,0,0,-1.149e-5,0.0012158,27,5.7256e-4,82.366,0.019173,NaN,1.3266,784.98,332.1,0.05,0.048852
5.0767,608.89,105.37,-1.5489,105.72,1.5499,41.805,0.0075487,41.806,0.010346,8.5402,0.056684,40,-100,0.99883,0.16859,-6.7974e-5,-1.6098,0.003058,266.5,0,0.0068303,3.4151e-5,314.41,272.29,1.5601,0.32008,3035269,0,1.4438,0.44822,0.44826,0.31093,0.0039728,0.13332,0.015396,0.02386,2.0296e-4,0,0,0,0,-7.1456e-6,0.0012071,27,5.7256e-4,82.272,0.030264,NaN,1.2922,784.47,332.08,0.05,0.04904
5.1267,614.14,104.61,-1.5414,104.96,1.5422,42.232,0.0076932,42.232,0.010437,8.5163,0.049618,40,-100,0.99883,0.22843,-6.6927e-5,-0.39058,0.0027502,266.5,0,0.0068303,3.4151e-5,314.21,272.29,1.5527,0.31779,3012105,0,1.4218,0.44803,0.4481,0.31098,0.0039255,0.13313,0.020958,0.032509,-1.4394e-4,0,0,0,0,-4.2679e-7,0.0011985,27,5.7256e-4,82.221,0.036935,NaN,1.2581,783.97,332.06,0.05,0.04924
5.1767,619.35,103.86,-1.533,104.2,1.5338,42.657,0.0078476,42.657,0.010541,8.4907,0.049595,40,-99.999,0.99883,0.22124,-6.5963e-5,0.64181,-0.0053558,266.5,0,0.0068303,3.4151e-5,314.22,272.29,1.5531,0.31552,2989157,0,1.4,0.44784,0.44791,0.31102,0.003879,0.13294,0.020285,0.031189,1.8497e-4,0,0,0,0,1.1692e-6,0.0011899,27,5.7256e-4,82.228,0.035758,NaN,1.2242,783.46,332.04,0.05,0.049428
5.2267,624.52,103.11,-1.5247,103.46,1.5255,43.081,0.008011,43.081,0.010654,8.4672,0.048007,40,-99.999,0.99883,0.2236,-6.4212e-5,1.7858,-0.013156,266.5,0,0.0068303,3.4151e-5,314.2,272.29,1.5524,0.31322,2965911,0,1.3782,0.44765,0.44772,0.31107,0.0038322,0.13275,0.020504,0.032081,5.6405e-5,0,0,0,0,9.1867e-6,0.0011814,27,5.7256e-4,82.288,0.027744,NaN,1.1906,782.97,332.02,0.05,0.049615
5.2767,629.66,102.36,-1.5153,102.71,1.5164,43.504,0.0081806,43.504,0.010774,8.4423,0.056471,40,-99.999,0.99883,0.12737,-6.3564e-5,2.7171,-0.024543,266.5,0,0.0068303,3.4151e-5,314.5,272.29,1.5634,0.31096,2943126,0,1.3568,0.44747,0.44749,0.31111,0.0037868,0.13257,0.011592,0.018373,6.9993e-5,0,0,0,0,2.1579e-5,0.0011729,27,5.7256e-4,82.403,0.016784,NaN,1.1572,782.47,332,0.05,0.049803
5.3267,634.76,101.62,-1.5056,101.97,1.5072,43.925,0.0083526,43.925,0.010895,8.4114,0.068868,40,-99.999,0.99883,0.013919,-6.3333e-5,-2.9643,-0.26854,266.5,0,0.0068303,3.4151e-5,314.85,272.29,1.5765,0.30873,2920603,0,1.336,0.44729,0.44729,0.31115,0.0037423,0.13239,0.0012555,0.0015838,-3.9865e-4,0,0,0,0,-2.6061e-5,0.0011644,27,5.7256e-4,82.548,0.0037351,NaN,1.1241,781.98,331.98,0.05,0.049991
5.3767,639.82,100.89,-1.496,101.23,1.4983,44.345,0.0085227,44.345,0.011012,8.3746,0.083081,40,-99.999,0.99882,0.1753,-6.3367e-5,-2.579,-0.011972,266.5,0,0.0068303,3.4151e-5,314.32,272.29,1.5569,0.30652,2898395,0,1.3157,0.44711,0.44715,0.3112,0.0036988,0.13221,0.016011,0.024761,-1.9946e-4,0,0,0,0,-2.0013e-5,0.001156,27,5.7256e-4,82.691,-0.01197,NaN,1.0912,781.49,331.96,0.05,0.050176
5.4267,644.85,100.16,-1.4871,100.5,1.49,44.762,0.0086867,44.762,0.011119,8.3307,0.09306,40,-99.999,0.99882,0.29294,-6.2717e-5,-1.4101,0.001819,266.5,0,0.0068303,3.4151e-5,313.94,272.29,1.5429,0.30433,2876320,0,1.2959,0.44693,0.44705,0.31124,0.0036559,0.13204,0.026999,0.041941,-4.458e-4,0,0,0,0,-6.0699e-6,0.0011477,27,5.7256e-4,82.792,-0.025621,NaN,1.0585,781.01,331.94,0.05,0.050364
5.4767,649.84,99.428,-1.4792,99.773,1.4823,45.178,0.0088408,45.178,0.011212,8.2845,0.095582,40,-99.999,0.99882,0.33408,-6.1304e-5,0.043453,0.009193,266.5,0,0.0068303,3.4151e-5,313.81,272.29,1.5378,0.30214,2854324,0,1.2762,0.44676,0.44691,0.31128,0.0036136,0.13187,0.030887,0.04782,-3.4218e-4,0,0,0,0,5.8485e-9,0.0011394,27,5.7256e-4,82.827,-0.032913,NaN,1.0261,780.53,331.92,0.05,0.050552
5.5267,654.79,98.704,-1.4732,99.048,1.4754,45.591,0.0089835,45.591,0.01129,8.2393,0.080609,40,-99.999,0.99882,0.19634,-6.0777e-5,1.4461,0.032084,266.5,0,0.0068303,3.4151e-5,314.23,272.29,1.5533,0.29989,2831781,0,1.2557,0.44658,0.44664,0.31132,0.0035704,0.13169,0.017959,0.027419,-2.9043e-4,0,0,0,0,6.5754e-6,0.0011311,27,5.7256e-4,82.787,-0.032497,NaN,0.99386,780.05,331.9,0.05,0.050739
5.5767,659.71,97.983,-1.4665,98.326,1.4684,46.002,0.0091154,46.002,0.011353,8.2044,0.074187,40,-99.999,0.99882,0.13571,-6.177e-5,1.9015,0.03452,266.5,0,0.0068303,3.4151e-5,314.41,272.29,1.5601,0.29774,2810129,0,1.2364,0.44642,0.44644,0.31136,0.0035294,0.13152,0.012354,0.019611,4.7509e-4,0,0,0,0,1.1537e-5,0.0011229,27,5.7256e-4,82.703,-0.024245,NaN,0.9619,779.58,331.88,0.05,0.050927
